{
    "outpatientCare": [
        {
            "name": "ДКЦ 2",
            "city": "София",
            "premium": false,
            "address": "ул. „Хан Крум“ 1, 1000 София център, София",
            "lat": 42.69152326022584,
            "lng": 23.324003142329623
        },
        {
            "name": "ДКЦ 28",
            "city": "София",
            "premium": false,
            "address": "ул. „Илия Бешков“ 1, 1528 НПЗ Искър, София",
            "lat": 42.6628884186922,
            "lng": 23.407120701846317
        },
        {
            "name": "Аджибадем Сити Клиник ДКЦ Токуда",
            "city": "София",
            "premium": true,
            "address": "бул. „Никола Й. Вапцаров“ 51Б, 1407 Промишлена зона Хладилника, София",
            "lat": 42.665060863639646,
            "lng": 23.324975911572686
        },
        {
            "name": "ДКЦ Фокус 5",
            "city": "София",
            "premium": true,
            "address": "ул. „Христо Станчев“ 15, 1463 София център, София",
            "lat": 42.68611966986473,
            "lng": 23.312463913419297
        },
        {
            "name": "МДЦ Еуровита",
            "city": "София",
            "premium": true,
            "address": "Софийски околовръстен път 72, 1415 кв. Драгалевци, София",
            "lat": 42.63882920045684,
            "lng": 23.318626182736796
        },
        {
            "name": "МЦ Салвебис",
            "city": "София",
            "premium": true,
            "address": "бул. „Свети Наум“ 51, 1164 ж.к. Лозенец, София",
            "lat": 42.67729230958056,
            "lng": 23.33258762883519
        },
        {
            "name": "МЦ Зрение",
            "city": "София",
            "premium": true,
            "address": "ул. „Балша“ 5",
            "lat": 42.68091617505358,
            "lng": 23.31014294417594
        },
        {
            "name": "МЦ Ориндж",
            "city": "София",
            "premium": true,
            "address": "ул. „109-та“ 19, 1343 ж.к. Люлин 1, София",
            "lat": 42.73053633497302,
            "lng": 23.253596142329627
        },
        {
            "name": "ДКЦ Софиямед",
            "city": "София",
            "premium": false,
            "address": "бул. „Доктор Г. М. Димитров“ 16, 1797 НПЗ Дианабад, София",
            "lat": 42.6673781230572,
            "lng": 23.364091671164807
        },
        {
            "name": "МБАЛ Айтос",
            "city": "Айтос",
            "premium": false,
            "address": "ул. Шейново 4, Айтос",
            "lat": 42.69738184908326,
            "lng": 27.26234742883519
        },
        {
            "name": "МЦ 1 Асеновград",
            "city": "Асеновград",
            "premium": false,
            "address": "ул. „Александър Стамболийски“ 28, 4230 Център, Асеновград",
            "lat": 42.0163115195922,
            "lng": 24.880063215340755
        },
        {
            "name": "МЦ ПУЛС",
            "city": "Благоевград",
            "premium": false,
            "address": "ул. „Славянска“ 62, 2700 Благоевград Център, Благоевград",
            "lat": 42.023549898270694,
            "lng": 23.08967962698887
        },
        {
            "name": "СМДЛ Русев",
            "city": "Бургас",
            "premium": false,
            "address": "бул. „Демокрация“ 94 , Бургас",
            "lat": 42.50087743547688,
            "lng": 27.4772703
        },
        {
            "name": "МЦ Света София",
            "city": "Бургас",
            "premium": true,
            "address": "ул. „Възраждане“ 13 , Бургас",
            "lat": 42.49469807157376,
            "lng": 27.47328654048331
        },
        {
            "name": "Клиника Нова - Варна",
            "city": "Варна",
            "premium": true,
            "address": "ул. „Вяра“ 7А , Варна",
            "lat": 43.229698266361716,
            "lng": 27.890829871164808
        },
        {
            "name": "МЦ Аджибадем Сити Клиник Варна",
            "city": "Варна",
            "premium": false,
            "address": "ул. „Брегалница“, 9002 Варна Център, Варна",
            "lat": 43.21777021191226,
            "lng": 27.916144815340754
        },
        {
            "name": "МЦ Дарис",
            "city": "Козлодуй",
            "premium": false,
            "address": "ул. София 13, 3320 Център, Козлодуй",
            "lat": 43.77480848125963,
            "lng": 23.737056417187073
        },
        {
            "name": "ДКЦ 5 Пловдив",
            "city": "Пловдив",
            "premium": false,
            "address": "ул. „Съединение“ 42, 4023 кв. Търговски - А5, Пловдив",
            "lat": 42.13244988175868,
            "lng": 24.79379937301113
        },
        {
            "name": "МЦ 6 Пловдив",
            "city": "Пловдив",
            "premium": false,
            "address": "ул. „Иван Вазов“ 59, 4000 Център, Пловдив",
            "lat": 42.13625747386637,
            "lng": 24.74313742883518
        }
    ],
    "hospitalCare": [
        {
            "name": "СБАЛББ Света София",
            "city": "София",
            "premium": false,
            "address": "бул. „Aкадемик Иван Евстратиев Гешов“ 17, 1431 София център, София",
            "lat": 42.68149112489408,
            "lng": 23.302678926988868
        },
        {
            "name": "МБАЛ Люлин",
            "city": "София",
            "premium": false,
            "address": "бул. „д-р Петър Дертлиев“ 81, 1336 ж.к. Люлин 6, София",
            "lat": 42.70852889967184,
            "lng": 23.249364371164813
        },
        {
            "name": "МБАЛ Здравето 2012",
            "city": "София",
            "premium": false,
            "address": "ул. „Маестро Кънев“ 4, 1618 ж.к. Славия, София",
            "lat": 42.68153089626099,
            "lng": 23.270893215340745
        },
        {
            "name": "УМБАЛ Александровска",
            "city": "София",
            "premium": true,
            "address": "ул. „св. Георги Софийски“ 1, 1431 София център, София",
            "lat": 42.68487457052134,
            "lng": 23.304852815340755
        },
        {
            "name": "СОБАЛ Акад. Пашев",
            "city": "София",
            "premium": true,
            "address": "ул. „Емануил Васкидович“ 51, 1517 ж.к. Сухата река, София",
            "lat": 42.701935744466546,
            "lng": 23.369114255682902
        },
        {
            "name": "МБАЛ Айтос",
            "city": "Айтос",
            "premium": false,
            "address": "ул. Шейново 4, Айтос",
            "lat": 42.69738184908326,
            "lng": 27.26234742883519
        },
        {
            "name": "МЦ ПУЛС",
            "city": "Благоевград",
            "premium": false,
            "address": "ул. „Славянска“ 62, 2700 Благоевград Център, Благоевград",
            "lat": 42.023549898270694,
            "lng": 23.08967962698887
        },
        {
            "name": "МБАЛ Ботевград",
            "city": "Ботевград",
            "premium": false,
            "address": "гр.Ботевград, ул. Божко Божилов 1",
            "lat": 42.90867118511758,
            "lng": 23.800638913494435
        },
        {
            "name": "МБАЛ Бургас",
            "city": "Бургас",
            "premium": false,
            "address": "ж.к. Зорница 9, 8018 ж.к. Зорница, Бургас",
            "lat": 42.51345979376832,
            "lng": 27.465086828835183
        },
        {
            "name": "МБАЛ Дева Мария",
            "city": "Бургас",
            "premium": false,
            "address": "гр. Бургас, кв. Ветрен, ул Ал. Стамболийски",
            "lat": 42.6064695780938,
            "lng": 27.385855456964492
        },
        {
            "name": "МБАЛ Св. Анна",
            "city": "Варна",
            "premium": false,
            "address": "бул. „Цар Освободител“ 100, 9002 Варна Център, Варна",
            "lat": 43.21387463625867,
            "lng": 27.917810311648115
        },
        {
            "name": "СБАГАЛ Проф. Д-р Димитър Стаматов",
            "city": "Варна",
            "premium": false,
            "address": "бул. Цар Освободител 150. Варна",
            "lat": 43.21570883214306,
            "lng": 27.913120542329622
        },
        {
            "name": "МБАЛ Велики Преслав ЕООД",
            "city": "Велики Преслав",
            "premium": false,
            "address": "Ул. Любен Каравелов 51, гр. Велики Преслав",
            "lat": 43.16545818644777,
            "lng": 26.81305068707577
        },
        {
            "name": "МБАЛ Христо Ботев",
            "city": "Враца",
            "premium": false,
            "address": "бул. „2-ри юни“ 68, 3001 ж.к. Медковец, Враца",
            "lat": 43.19696274855747, 
            "lng": 23.56062801221833
        },
        {
            "name": "МБАЛ Д-р Тота Венкова",
            "city": "Габрово",
            "premium": false,
            "address": "ул. „Доктор Илиев-Детския“ 1, 5300 Сирманите, Габрово",
            "lat": 42.870956722989966,
            "lng": 25.30767045767037 
        },
        {
            "name": "УМБАЛ Свети Георги",
            "city": "Пловдив",
            "premium": false,
            "address": "бул. „Пещерско шосе“ 66, 4001 Западна промишлена зона, Пловдив",
            "lat": 42.138875341182356,
            "lng": 24.711607938935853 
        },
        {
            "name": "МБАЛ Пловдив",
            "city": "Пловдив",
            "premium": false,
            "address": "бул. „България“ 234, 4027 Пловдив",
            "lat": 42.15859867223639,
            "lng": 24.717397144040266
        }
    ],
    "emergencySubscribed": [
        {
            "name": "МЦ Полимед АД ",
            "city": "София",
            "premium": false,
            "address": "ул. „Брегалница“ 47, 1303 София център, София",
            "lat": 42.700252746119524,
            "lng": 23.30696768465924
        },
        {
            "name": "МЦ Торакс ЕООД",
            "city": "София",
            "premium": false,
            "address": "бул. „Александър Стамболийски“ 57, 1303 , София",
            "lat": 42.69794517339263,
            "lng": 23.31313804232962,
            "note": "Дежурен интернист в почивни дни от 8:00 до 21:00 часа"
        },
        {
            "name": "МБАЛ Национална кардиологична болница ЕАД",
            "city": "София",
            "premium": false,
            "address": "ул. „Коньовица“ 65, 1309 ж.к. Илинден, София",
            "lat": 42.70637132763455,
            "lng": 23.28740905881081
        },
        {
            "name": "УМБАЛСМ Н. И. Пирогов ЕАД",
            "city": "София",
            "premium": false,
            "address": "бул. „ген. Тотлебен“ 21, 1606 , София",
            "lat": 42.69035651917835,
            "lng": 23.307600673011127
        },
        {
            "name": "УМБАЛ Царица Йоанна - ИСУЛ ЕАД",
            "city": "София",
            "premium": false,
            "address": "ул. „Бяло море“ №8, 1527 София център, София",
            "lat": 42.70118979648121,
            "lng": 23.339075871164805
        },
        {
            "name": "МБАЛ Доверие АД",
            "city": "София",
            "premium": false,
            "address": "ул. „Фридрих Грюнангер“ 2, 1632 ж.к. Овча купел 2, София",
            "lat": 42.684851230710855,
            "lng": 23.24590991349444
        },
        {
            "name": "МЦ Сигмамед ЕООД",
            "city": "София",
            "premium": false,
            "address": "ул. „Проф. Христо Данов“ 11, 1700 Студентски Комплекс, София",
            "lat": 42.657453297891536, 
            "lng": 23.34570045767038,
            "note": "Събота от 08:00 ч. до 14:00 ч."
        },
        {
            "name": "МЦ Света София ООД",
            "city": "Бургас",
            "premium": false,
            "address": "ул. „Възраждане“ 13, 8000 Бургас Център, Бургас",
            "lat": 42.49469807157376,
            "lng": 27.47328654048331
        },
        {
            "name": "МЦ Св. Анна ЕООД",
            "city": "Варна",
            "premium": false,
            "address": "бул. „Цар Освободител“ 76, 9002 Варна Център, Варна",
            "lat": 43.21387463625867,
            "lng": 27.917810311648115
        },
        {
            "name": "МДЦ Медикус Алфа ЕООД",
            "city": "Пловдив",
            "premium": false,
            "address": "ул. „Велико Търново“ 21, 4000 Център, Пловдив",
            "lat": 42.14042182005364,
            "lng": 24.746707186505564
        },
        {
            "name": "МБАЛ Уни Хоспитал ООД",
            "city": "Панагюрище",
            "premium": false,
            "address": "ул. „Георги Бенковски“ 100, 4500 Панагюрище",
            "lat": 42.49385494117544,
            "lng": 24.186484971735027
        }
    ],
    "emergencyPayback": [
        {
            "name": "ВМА",
            "city": "София",
            "premium": false,
            "address": "ул. „св. Георги Софийски“ 3, 1606 София център, София",
            "lat": 42.68432966277715,
            "lng": 23.304486701846315
        },
        {
            "name": "ДКЦ Вита ООД",
            "city": "София",
            "premium": false,
            "address": "ул. „Драговица“ № 9, 1505 Оборище, София",
            "lat": 42.696261980472514,
            "lng": 23.35444315767037
        },
        {
            "name": "ДКЦ Д-р И. С. Грийнберг ЕООД",
            "city": "София",
            "premium": false,
            "address": "бул. „Копенхаген“ 23-A, 1582 ж.к. Дружба 2, София",
            "lat": 42.65091720310069,
            "lng": 23.404970671164815
        },
        {
            "name": "УМБАЛ Софиямед",
            "city": "София",
            "premium": false,
            "address": "бул. „Доктор Г.М. Димитров“ 16, 1797 НПЗ Дианабад, София",
            "lat": 42.6673781230572,
            "lng": 23.364091671164807
        },
        {
            "name": "МЦ Свети Пантелеймон ЕООД",
            "city": "София",
            "premium": false,
            "address": "бул. „Александър Стамболийски“ № 15, 1000 София център, София",
            "lat": 42.69682516484332,
            "lng": 23.320382386505564
        },
        {
            "name": "МЦ Лора ЕООД",
            "city": "София",
            "premium": false,
            "address": "ул. „Позитано“ 10, 1000 София център, София",
            "lat": 42.69623873322841,
            "lng": 23.319596604262845
        },
        {
            "name": "ВМА",
            "city": "Варна",
            "premium": false,
            "address": "бул. Христо Смирненски 3, 9000 Каменарски Дол, Варна",
            "lat": 43.22786262154138,
            "lng": 27.92705933380392
        },
        {
            "name": "МЦ Марица ЕООД",
            "city": "Пловдив",
            "premium": false,
            "address": "ул. „Плевен“ 13, 4020 Мараша, Пловдив",
            "lat": 42.15190623335799,
            "lng": 24.738591628835184
        }
    ]
}
